{
  "features": [
    {
      "geometry": {
        "coordinates": [
          -112.074037,
          33.448377
        ],
        "type": "Point"
      },
      "properties": {
        "description": "Population: 1,555,324",
        "title": "Phoenix, AZ"
      },
      "type": "Feature"
    },
    {
      "geometry": {
        "coordinates": [
          -116.054169,
          34.135558
        ],
        "type": "Point"
      },
      "properties": {
        "description": "Population: 26,452",
        "title": "Twentynine Palms, CA"
      },
      "type": "Feature"
    },
    {
      "geometry": {
        "coordinates": [
          -118.006472,
          36.281883
        ],
        "type": "Point"
      },
      "properties": {
        "description": "Population: 203",
        "title": "Olancha, CA"
      },
      "type": "Feature"
    },
    {
      "geometry": {
        "coordinates": [
          -118.152789,
          36.727229
        ],
        "type": "Point"
      },
      "properties": {
        "description": "Population: ---",
        "title": "Manzanar, CA"
      },
      "type": "Feature"
    },
    {
      "geometry": {
        "coordinates": [
          -118.399664,
          37.361424
        ],
        "type": "Point"
      },
      "properties": {
        "description": "Population: 3760",
        "title": "Bishop, CA"
      },
      "type": "Feature"
    },
    {
      "geometry": {
        "coordinates": [
          -119.649979,
          39.309514
        ],
        "type": "Point"
      },
      "properties": {
        "description": "Population: 711",
        "title": "Virginia City, NV"
      },
      "type": "Feature"
    },
    {
      "geometry": {
        "coordinates": [
          -119.374057,
          39.373804
        ],
        "type": "Point"
      },
      "properties": {
        "description": "Population: 1,703",
        "title": "Stagecoach, NV"
      },
      "type": "Feature"
    },
    {
      "geometry": {
        "coordinates": [
          -111.891047,
          40.760779
        ],
        "type": "Point"
      },
      "properties": {
        "description": "Population: 191,446",
        "title": "Salt Lake City, UT"
      },
      "type": "Feature"
    },
    {
      "geometry": {
        "coordinates": [
          -109.859034,
          41.543569
        ],
        "type": "Point"
      },
      "properties": {
        "description": "Population: 86",
        "title": "Little America, WY"
      },
      "type": "Feature"
    },
    {
      "geometry": {
        "coordinates": [
          -105.591101,
          41.311367
        ],
        "type": "Point"
      },
      "properties": {
        "description": "Population: 32,096",
        "title": "Laramie, WY"
      },
      "type": "Feature"
    },
    {
      "geometry": {
        "coordinates": [
          -103.418246,
          43.895544
        ],
        "type": "Point"
      },
      "properties": {
        "description": "Population: 318",
        "title": "Keystone, SD"
      },
      "type": "Feature"
    },
    {
      "geometry": {
        "coordinates": [
          -98.029799,
          43.709428
        ],
        "type": "Point"
      },
      "properties": {
        "description": "Population: 15,610",
        "title": "Mitchell, SD"
      },
      "type": "Feature"
    },
    {
      "geometry": {
        "coordinates": [
          -96.221128,
          41.778322
        ],
        "type": "Point"
      },
      "properties": {
        "description": "Population: 1,662",
        "title": "Tekamah, NE"
      },
      "type": "Feature"
    },
    {
      "geometry": {
        "coordinates": [
          -94.10718,
          41.838596
        ],
        "type": "Point"
      },
      "properties": {
        "description": "Population: 7,876",
        "title": "Perry, IA"
      },
      "type": "Feature"
    },
    {
      "geometry": {
        "coordinates": [
          -88.300063,
          41.296976
        ],
        "type": "Point"
      },
      "properties": {
        "description": "Population: 380",
        "title": "Carbon Hill, IL"
      },
      "type": "Feature"
    },
    {
      "geometry": {
        "coordinates": [
          -83.121863,
          41.35033
        ],
        "type": "Point"
      },
      "properties": {
        "description": "Population: 16,388",
        "title": "Fremont, OH"
      },
      "type": "Feature"
    },
    {
      "geometry": {
        "coordinates": [
          -76.886701,
          40.273191
        ],
        "type": "Point"
      },
      "properties": {
        "description": "Population: 49,160",
        "title": "Harrisburg, PA"
      },
      "type": "Feature"
    },
    {
      "geometry": {
        "coordinates": [
          -77.231095,
          39.830929
        ],
        "type": "Point"
      },
      "properties": {
        "description": "Population: 7,643",
        "title": "Gettysburg, PA"
      },
      "type": "Feature"
    },
    {
      "geometry": {
        "coordinates": [
          -77.036871,
          38.907192
        ],
        "type": "Point"
      },
      "properties": {
        "description": "Population: 659,009",
        "title": "Washington, D.C."
      },
      "type": "Feature"
    },
    {
      "geometry": {
        "coordinates": [
          -81.188156,
          37.77817
        ],
        "type": "Point"
      },
      "properties": {
        "description": "Population: 17,348",
        "title": "Beckley, WV"
      },
      "type": "Feature"
    },
    {
      "geometry": {
        "coordinates": [
          -82.910524,
          37.274667
        ],
        "type": "Point"
      },
      "properties": {
        "description": "Population: 15,884",
        "title": "Mallie, KY"
      },
      "type": "Feature"
    },
    {
      "geometry": {
        "coordinates": [
          -84.083265,
          37.128977
        ],
        "type": "Point"
      },
      "properties": {
        "description": "Population: 8,111",
        "title": "London, KY"
      },
      "type": "Feature"
    },
    {
      "geometry": {
        "coordinates": [
          -90.04898,
          35.149534
        ],
        "type": "Point"
      },
      "properties": {
        "description": "Population: 655,857",
        "title": "Mephis, TN"
      },
      "type": "Feature"
    },
    {
      "geometry": {
        "coordinates": [
          -94.348268,
          35.436756
        ],
        "type": "Point"
      },
      "properties": {
        "description": "Population: 23,155",
        "title": "Van Buren, AR"
      },
      "type": "Feature"
    },
    {
      "geometry": {
        "coordinates": [
          -97.516428,
          35.46756
        ],
        "type": "Point"
      },
      "properties": {
        "description": "Population: 620,015",
        "title": "Oklahoma City, OK"
      },
      "type": "Feature"
    },
    {
      "geometry": {
        "coordinates": [
          -99.404259,
          35.411994
        ],
        "type": "Point"
      },
      "properties": {
        "description": "Population: 12,426",
        "title": "Elk City, OK"
      },
      "type": "Feature"
    },
    {
      "geometry": {
        "coordinates": [
          -101.831297,
          35.221997
        ],
        "type": "Point"
      },
      "properties": {
        "description": "Population: 197,570",
        "title": "Amarillo, TX"
      },
      "type": "Feature"
    },
    {
      "geometry": {
        "coordinates": [
          -106.650422,
          35.084386
        ],
        "type": "Point"
      },
      "properties": {
        "description": "Population: 556,859",
        "title": "Albuquerque, NM"
      },
      "type": "Feature"
    },
    {
      "geometry": {
        "coordinates": [
          -107.851447,
          35.14726
        ],
        "type": "Point"
      },
      "properties": {
        "description": "Population: 9,263",
        "title": "Grant, NM"
      },
      "type": "Feature"
    },
    {
      "geometry": {
        "coordinates": [
          -109.328794,
          35.209143
        ],
        "type": "Point"
      },
      "properties": {
        "description": "Population: 574",
        "title": "Sanders, AZ"
      },
      "type": "Feature"
    }
  ],
  "type": "FeatureCollection"
}