{
"type": "FeatureCollection",
"features": [
{
"geometry": {
"coordinates": [
-112.074037,
33.448377
],
"type": "Point"
},
"properties": {
"population": "1,555,324",
"city": "Phoenix",
"state": "Arizona",
"marker": "phoenix"
},
"type": "Feature"
},
{
"geometry": {
"coordinates": [
-116.054169,
34.135558
],
"type": "Point"
},
"properties": {
"population": "26,452",
"city": "Twentynine Palms",
"state": "California",
"marker": "twenty-nine-palms"
},
"type": "Feature"
},
{
"geometry": {
"coordinates": [
-118.006472,
36.281883
],
"type": "Point"
},
"properties": {
"population": "203",
"city": "Olancha",
"state": "California",
"marker": "manzanar"
},
"type": "Feature"
},
{
"geometry": {
"coordinates": [
-118.152789,
36.727229
],
"type": "Point"
},
"properties": {
"population": "---",
"city": "Manzanar",
"state": "California",
"tag": "manzanar"
},
"type": "Feature"
},
{
"geometry": {
"coordinates": [
-118.399664,
37.361424
],
"type": "Point"
},
"properties": {
"population": "3760",
"city": "Bishop",
"state": "California",
"marker": "bishop"
},
"type": "Feature"
},
{
"geometry": {
"coordinates": [
-119.649979,
39.309514
],
"type": "Point"
},
"properties": {
"population": "711",
"city": "Virginia City",
"state": "Nevada",
"marker": "virginia-city"
},
"type": "Feature"
},
{
"geometry": {
"coordinates": [
-119.374057,
39.373804
],
"type": "Point"
},
"properties": {
"population": "1,703",
"city": "Stagecoach",
"state": "Nevada",
"marker": "stagecoach"
},
"type": "Feature"
},
{
"geometry": {
"coordinates": [
-111.891047,
40.760779
],
"type": "Point"
},
"properties": {
"population": "191,446",
"city": "Salt Lake City",
"state": "Utah",
"marker": "salt-lake-city"
},
"type": "Feature"
},
{
"geometry": {
"coordinates": [
-109.859034,
41.543569
],
"type": "Point"
},
"properties": {
"population": "86",
"city": "Little America",
"state": "Wyoming",
"marker": "little-america"
},
"type": "Feature"
},
{
"geometry": {
"coordinates": [
-105.591101,
41.311367
],
"type": "Point"
},
"properties": {
"population": "32,096",
"city": "Laramie",
"state": "Wyoming",
"marker": "laramie"
},
"type": "Feature"
},
{
"geometry": {
"coordinates": [
-103.418246,
43.895544
],
"type": "Point"
},
"properties": {
"population": "318",
"city": "Keystone",
"state": "South Dakota",
"marker": "keystone"
},
"type": "Feature"
},
{
"geometry": {
"coordinates": [
-98.029799,
43.709428
],
"type": "Point"
},
"properties": {
"population": "15,610",
"city": "Mitchell",
"state": "South Dakota",
"marker": "mitchell"
},
"type": "Feature"
},
{
"geometry": {
"coordinates": [
-96.221128,
41.778322
],
"type": "Point"
},
"properties": {
"population": "1,662",
"city": "Tekamah",
"state": "Nebraska",
"marker": "tekamah"
},
"type": "Feature"
},
{
"geometry": {
"coordinates": [
-94.10718,
41.838596
],
"type": "Point"
},
"properties": {
"population": "7,876",
"city": "Perry",
"state": "Iowa",
"marker": "perry"
},
"type": "Feature"
},
{
"geometry": {
"coordinates": [
-88.300063,
41.296976
],
"type": "Point"
},
"properties": {
"population": "380",
"city": "Carbon Hill",
"state": "Illinois",
"marker": "carbon-hill"
},
"type": "Feature"
},
{
"geometry": {
"coordinates": [
-83.121863,
41.35033
],
"type": "Point"
},
"properties": {
"population": "16,388",
"city": "Fremont",
"state": "Ohio",
"marker": "fremont"
},
"type": "Feature"
},
{
"geometry": {
"coordinates": [
-76.886701,
40.273191
],
"type": "Point"
},
"properties": {
"population": "49,160",
"city": "Harrisburg",
"state": "Pennsylvania",
"marker": "harrisburg"
},
"type": "Feature"
},
{
"geometry": {
"coordinates": [
-77.231095,
39.830929
],
"type": "Point"
},
"properties": {
"population": "7,643",
"city": "Gettysburg",
"state": "Pennsylvania",
"marker": "gettysburg"
},
"type": "Feature"
},
{
"geometry": {
"coordinates": [
-77.036871,
38.907192
],
"type": "Point"
},
"properties": {
"population": "659,009",
"city": "Washington, D.C.",
"state": "",
"marker": "washington-dc"
},
"type": "Feature"
},
{
"geometry": {
"coordinates": [
-81.188156,
37.77817
],
"type": "Point"
},
"properties": {
"population": "17,348",
"city": "Beckley",
"state": "West Virginia",
"marker": "beckley"
},
"type": "Feature"
},
{
"geometry": {
"coordinates": [
-82.910524,
37.274667
],
"type": "Point"
},
"properties": {
"population": "15,884",
"city": "Mallie",
"state": "Kentucky",
"marker": "mallie"
},
"type": "Feature"
},
{
"geometry": {
"coordinates": [
-84.083265,
37.128977
],
"type": "Point"
},
"properties": {
"population": "8,111",
"city": "London",
"state": "Kentucky",
"marker": "london"
},
"type": "Feature"
},
{
"geometry": {
"coordinates": [
-90.04898,
35.149534
],
"type": "Point"
},
"properties": {
"population": "655,857",
"city": "Memphis",
"state": "Tennessee",
"marker": "memphis"
},
"type": "Feature"
},
{
"geometry": {
"coordinates": [
-94.348268,
35.436756
],
"type": "Point"
},
"properties": {
"population": "23,155",
"city": "Van Buren",
"state": "Arkansas",
"marker": "van-buren"
},
"type": "Feature"
},
{
"geometry": {
"coordinates": [
-97.516428,
35.46756
],
"type": "Point"
},
"properties": {
"population": "620,015",
"city": "Oklahoma City",
"state": "Oklahoma",
"marker": "oklahoma-city"
},
"type": "Feature"
},
{
"geometry": {
"coordinates": [
-99.404259,
35.411994
],
"type": "Point"
},
"properties": {
"population": "12,426",
"city": "Elk City",
"state": "Oklahoma",
"marker": "elk-city"
},
"type": "Feature"
},
{
"geometry": {
"coordinates": [
-101.831297,
35.221997
],
"type": "Point"
},
"properties": {
"population": "197,570",
"city": "Amarillo",
"state": "Texas",
"marker": "amarillo"
},
"type": "Feature"
},
{
"geometry": {
"coordinates": [
-106.650422,
35.084386
],
"type": "Point"
},
"properties": {
"population": "556,859",
"city": "Albuquerque",
"state": "New Mexico",
"marker": "albuquerque"
},
"type": "Feature"
},
{
"geometry": {
"coordinates": [
-107.851447,
35.14726
],
"type": "Point"
},
"properties": {
"population": "9,263",
"city": "Grant",
"state":"New Mexico",
"marker": "grant"
},
"type": "Feature"
},
{
"geometry": {
"coordinates": [
-109.328794,
35.209143
],
"type": "Point"
},
"properties": {
"population": "574",
"city": "Sanders",
"state":"Arizona",
"marker": "sanders"
},  
"type": "Feature"
}
]
};